{"usersTastes":[{"id":1,"name":"산"},{"id":2,"name":"럭셔리"},{"id":3,"name":"역사"},{"id":4,"name":"웰빙"},{"id":5,"name":"바다"}],"spots":[{"id":1,"name":"test1","latitude":37.253452,"longitude":126.234523,"rank":null,"snsPostCount":50,"snsPostLikeNumber":100,"metroName":"서울","localName":null,"themes":["럭셔리","산"]},{"id":2,"name":"test2","latitude":37.253452,"longitude":126.234523,"rank":null,"snsPostCount":50,"snsPostLikeNumber":100,"metroName":"서울","localName":null,"themes":["산"]},{"id":3,"name":"test3","latitude":37.253452,"longitude":126.234523,"rank":null,"snsPostCount":50,"snsPostLikeNumber":100,"metroName":"인천","localName":null,"themes":["산"]},{"id":4,"name":"test4","latitude":37.253452,"longitude":126.234523,"rank":null,"snsPostCount":50,"snsPostLikeNumber":100,"metroName":"인천","localName":null,"themes":["럭셔리"]},{"id":5,"name":"test5","latitude":37.253452,"longitude":126.234523,"rank":null,"snsPostCount":50,"snsPostLikeNumber":100,"metroName":"인천","localName":null,"themes":["역사"]},{"id":6,"name":"test6","latitude":37.253452,"longitude":126.234523,"rank":null,"snsPostCount":50,"snsPostLikeNumber":100,"metroName":"인천","localName":null,"themes":[null]},{"id":7,"name":"test7","latitude":37.253452,"longitude":126.234523,"rank":null,"snsPostCount":50,"snsPostLikeNumber":100,"metroName":"부산","localName":null,"themes":["역사","웰빙"]},{"id":8,"name":"포워드","latitude":35.79697333,"longitude":129.2532501,"rank":null,"snsPostCount":0,"snsPostLikeNumber":0,"metroName":"경상도","localName":"경주시","themes":[null]},{"id":9,"name":"월아산","latitude":35.19114732,"longitude":128.194633,"rank":3,"snsPostCount":0,"snsPostLikeNumber":0,"metroName":"경상도","localName":"진주시","themes":[null]},{"id":10,"name":"북 마리아나제도 ㅡ 사이판","latitude":37.50035432,"longitude":127.0983584,"rank":1,"snsPostCount":0,"snsPostLikeNumber":0,"metroName":"서울","localName":null,"themes":[null]},{"id":11,"name":"정선 민둥산 정상 해발 1,119미터","latitude":37.27176409,"longitude":128.7738335,"rank":2,"snsPostCount":0,"snsPostLikeNumber":0,"metroName":"강원도","localName":"정선군","themes":[null]}],"allTasteThemes":[{"id":1,"themes":["산","럭셔리","역사","웰빙","바다"]}]}